[
{"locat_id":"1","locat_name":"一角鯨咖啡 Monodon Coffee","city":"台北市","district":"大同區","address":"赤峰街49巷10號","latitude":"25.0556488","longitude":"121.5199418"},
{"locat_id":"2","locat_name":"nonbiri","city":"台北市","district":"松山區","address":"敦化北路120巷7弄11號1樓","latitude":"25.0537255","longitude":"121.5481043"},
{"locat_id":"3","locat_name":"Yukan‘na Space 勇敢的空間","city":"台北市","district":"大安區","address":"通安街46號2樓","latitude":"25.0314523","longitude":"121.5532192"},
{"locat_id":"4","locat_name":"特有種商行","city":"台北市","district":"中正區","address":"臨沂街27巷4-1號","latitude":"25.0409360","longitude":"121.5306592"},
{"locat_id":"5","locat_name":"漫時生活","city":"台北市","district":"內湖區","address":"內湖路一段372號","latitude":"25.0810190","longitude":"121.5718537"},
{"locat_id":"6","locat_name":"The Misanthrope Society 厭世會社","city":"台北市","district":"中正區","address":"羅斯福路四段40巷1-2號","latitude":"25.0153610","longitude":"121.5333299"},
{"locat_id":"7","locat_name":"Neko cafe","city":"台北市","district":"北投區","address":"光明路200-9號","latitude":"25.1360441","longitude":"121.5037672"},
{"locat_id":"8","locat_name":"藝磊心視界","city":"台北市","district":"大同區","address":"重慶北路一段101號2樓","latitude":"25.0535305","longitude":"121.5144775"},
{"locat_id":"9","locat_name":"Jomo coffee","city":"台北市","district":"大同區","address":"大龍街91巷17-1號","latitude":"25.0674802","longitude":"121.5170144"},
{"locat_id":"10","locat_name":"MOJO 1921","city":"台北市","district":"大同區","address":"長安西路39號","latitude":"25.0503327","longitude":"121.5196715"},
{"locat_id":"11","locat_name":"MIDDLE NAME","city":"台北市","district":"大同區","address":"南京西路18巷10號","latitude":"25.0515161","longitude":"121.5201443"},
{"locat_id":"12","locat_name":"BaganHood 蔬食餐酒館","city":"台北市","district":"信義區","address":"忠孝東路四段553巷46弄11號","latitude":"25.0442549","longitude":"121.5634963"},
{"locat_id":"13","locat_name":"響 ART 大直店","city":"台北市","district":"中山區","address":"大直街110號","latitude":"25.0843162","longitude":"121.5482574"},
{"locat_id":"14","locat_name":"猴頑咖啡敦北民生店HoWINE&CAFE","city":"台北市","district":"松山區","address":"敦化北路222巷29號1樓","latitude":"25.0598554","longitude":"121.5475610"},
{"locat_id":"15","locat_name":"NUL TAIPEI","city":"台北市","district":"大安區","address":"復興南路二段160巷22號","latitude":"25.0278035","longitude":"121.5419362"},
{"locat_id":"16","locat_name":"The Oasis Tavern Xinyi 綠洲酒館-信義","city":"台北市","district":"信義區","address":"基隆路二段117號1樓","latitude":"25.0285414","longitude":"121.5570617"},
{"locat_id":"17","locat_name":"Parti cafe","city":"台北市","district":"士林區","address":"中山北路六段430號2樓","latitude":"25.1138272","longitude":"121.5272521"},
{"locat_id":"18","locat_name":"CBC SPACE 景美咖啡圖書館","city":"台北市","district":"文山區","address":"景興路193號","latitude":"24.9922295","longitude":"121.5444187"},
{"locat_id":"19","locat_name":"陽安日和齒顎矯正牙醫診所","city":"台北市","district":"中山區","address":"民權東路二段152巷2-1號2樓","latitude":"25.0620133","longitude":"121.5350034"},
{"locat_id":"20","locat_name":"Congrats Café","city":"台北市","district":"大安區","address":"文昌街49號","latitude":"25.0328582","longitude":"121.5505549"},
{"locat_id":"21","locat_name":"松菸文創園區1號倉庫","city":"台北市","district":"信義區","address":"光復南路133號","latitude":"25.0438893","longitude":"121.5579510"},
{"locat_id":"22","locat_name":"臺北市立美術館","city":"台北市","district":"中山區","address":"中山北路三段181號","latitude":"25.0724544","longitude":"121.5246239"},
{"locat_id":"23","locat_name":"國立故宮博物院","city":"台北市","district":"士林區","address":"至善路二段221號","latitude":"25.1003608","longitude":"121.5494868"},
{"locat_id":"24","locat_name":"台北當代藝術館 MOCA TAIPEI","city":"台北市","district":"大同區","address":"長安西路39號","latitude":"25.0503327","longitude":"121.5196715"},
{"locat_id":"25","locat_name":"台灣當代文化實驗場 Taiwan Contemporary Culture Lab","city":"台北市","district":"大安區","address":"建國南路一段177號","latitude":"25.0406963","longitude":"121.5379147"},
{"locat_id":"26","locat_name":"信二家廚 Shinji Living 新生店共享廚房","city":"台北市","district":"中正區","address":"濟南路二段62巷23號1樓1樓","latitude":"25.0388423","longitude":"121.5322741"},
{"locat_id":"27","locat_name":"Wayne的口嗜心飛料理實驗室","city":"台北市","district":"大安區","address":"永康街2巷12號4樓","latitude":"25.0331735","longitude":"121.5292584"},
{"locat_id":"28","locat_name":"實驗廚房｜Kitchen Starter","city":"台北市","district":"中山區","address":"民族東路72號地下1樓","latitude":"25.0682222","longitude":"121.5264055"},
{"locat_id":"29","locat_name":"放空 Zzz Studio","city":"台北市","district":"大安區","address":"仁愛路四段151巷35號2樓之1室","latitude":"25.0401572","longitude":"121.5519900"},
{"locat_id":"30","locat_name":"Le Carré 拉開門","city":"台北市","district":"中正區","address":"博愛路104號3樓","latitude":"25.0438560","longitude":"121.5114211"},
{"locat_id":"31","locat_name":"毛時光共享空間","city":"台北市","district":"中山區","address":"吉林路26巷26號2樓","latitude":"25.0514222","longitude":"121.5291644"},
{"locat_id":"32","locat_name":"BH 小洋房","city":"台北市","district":"士林區","address":"延平北路九段348號2樓","latitude":"25.1094692","longitude":"121.4678846"},
{"locat_id":"33","locat_name":"The Normal敦北店","city":"台北市","district":"松山區","address":"敦化北路50巷17號1樓","latitude":"25.0505623","longitude":"121.5477681"},
{"locat_id":"34","locat_name":"黑帽 Black Hat Jazz Café & Bar","city":"台北市","district":"中正區","address":"博愛路158號2樓","latitude":"25.0418144","longitude":"121.5113954"},
{"locat_id":"35","locat_name":"五壤藝術空間","city":"台北市","district":"中正區","address":"重慶南路一段66-1號9樓","latitude":"25.0437251","longitude":"121.5130152"},
{"locat_id":"36","locat_name":"植萃吧寵物友善咖啡廳","city":"台北市","district":"中山區","address":"明水路672巷32號","latitude":"25.0835240","longitude":"121.5516579"},
{"locat_id":"37","locat_name":"舞時光 藝文空間","city":"台北市","district":"大同區","address":"大龍街215巷13號1樓","latitude":"25.0706970","longitude":"121.5164614"},
{"locat_id":"38","locat_name":"mutix Studio","city":"台北市","district":"松山區","address":"八德路四段636-1號1樓","latitude":"25.0498087","longitude":"121.5744179"},
{"locat_id":"39","locat_name":"課廳 演創空間","city":"台北市","district":"大同區","address":"西寧北路104號2樓","latitude":"25.0558521","longitude":"121.5088582"},
{"locat_id":"40","locat_name":"芮亞動態藝術","city":"台北市","district":"文山區","address":"羅斯福路六段142巷20弄2號1樓","latitude":"24.9968760","longitude":"121.5398157"},
{"locat_id":"41","locat_name":"Grow Life 靠過來","city":"台北市","district":"中正區","address":"新生南路一段160巷18-1號1樓","latitude":"25.0345854","longitude":"121.5307647"},
{"locat_id":"42","locat_name":"工作樂 共想空間","city":"台北市","district":"中山區","address":"松江路64巷10-2號","latitude":"25.0490321","longitude":"121.5319950"},
{"locat_id":"43","locat_name":"小角落 Hostel & Cafe","city":"台北市","district":"大同區","address":"民族西路33號2樓","latitude":"25.0685999","longitude":"121.5195546"},
{"locat_id":"44","locat_name":"nie_studio","city":"台北市","district":"中山區","address":"民權東路三段17號5樓","latitude":"25.0625584","longitude":"121.5415829"},
{"locat_id":"45","locat_name":"WAVE FLOWER 浪花","city":"台北市","district":"大安區","address":"延吉街241巷2弄13號2樓","latitude":"25.0355921","longitude":"121.5560479"},
{"locat_id":"46","locat_name":"Ｗhere’s Flower 哪兒花室","city":"台北市","district":"中山區","address":"德惠街39號","latitude":"25.0667231","longitude":"121.5268446"},
{"locat_id":"47","locat_name":"轉角金工","city":"台北市","district":"大同區","address":"重慶北路一段15巷3號1樓","latitude":"25.0502053","longitude":"121.5138659"},
{"locat_id":"48","locat_name":"Steven W. Leather Craft","city":"台北市","district":"中山區","address":"台北市中山區明水路575號地下1樓","latitude":"25.0798809","longitude":"121.5519311"},
{"locat_id":"49","locat_name":"二回木 ROUND2 DESIGN","city":"台北市","district":"大同區","address":"大龍街229號1樓","latitude":"25.0708185","longitude":"121.5159686"},
{"locat_id":"50","locat_name":"北美春室 Glass Studio","city":"台北市","district":"中山區","address":"敬業三路20號2樓","latitude":"25.0836021","longitude":"121.5575012"},
{"locat_id":"51","locat_name":"未至之地Café","city":"台北市","district":"內湖區","address":"民善街127號1樓","latitude":"25.0614033","longitude":"121.5753781"},
{"locat_id":"52","locat_name":"象限畫廊","city":"台北市","district":"中山區","address":"松江路204巷11號","latitude":"25.0575073","longitude":"121.5324415"},
{"locat_id":"53","locat_name":"南風之約咖啡","city":"台北市","district":"大安區","address":"東豐街61號","latitude":"25.0360770","longitude":"121.5474965"},
{"locat_id":"54","locat_name":"構築美學藝廊","city":"台北市","district":"中山區","address":"中山北路二段42巷12號","latitude":"25.0545501","longitude":"121.5219256"},
{"locat_id":"55","locat_name":"光影之間藝廊","city":"台北市","district":"中山區","address":"中山北路二段26巷11號","latitude":"25.0539860","longitude":"121.5218143"},
{"locat_id":"56","locat_name":"白方寸藝廊","city":"台北市","district":"內湖區","address":"環山路二段48-1號","latitude":"25.0857196","longitude":"121.5734598"},
{"locat_id":"57","locat_name":"日常碎片Café","city":"台北市","district":"中山區","address":"大直街20巷15號","latitude":"25.0813347","longitude":"121.5453461"},
{"locat_id":"58","locat_name":"曠然畫廊","city":"台北市","district":"中山區","address":"民生東路二段147巷1號1樓","latitude":"25.0592316","longitude":"121.5347226"},
{"locat_id":"59","locat_name":"以日為序Café","city":"台北市","district":"內湖區","address":"洲子街150號","latitude":"25.0812006","longitude":"121.5677616"},
{"locat_id":"60","locat_name":"象限之間藝廊","city":"台北市","district":"中正區","address":"晉江街10號","latitude":"25.0260547","longitude":"121.5211307"},
{"locat_id":"61","locat_name":"藝術家之森Café","city":"台北市","district":"大安區","address":"忠孝東路三段251巷4弄14號","latitude":"25.0423111","longitude":"121.5409018"},
{"locat_id":"62","locat_name":"浮光咖啡","city":"台北市","district":"大安區","address":"復興南路一段107巷16號","latitude":"25.0434873","longitude":"121.5451492"},
{"locat_id":"63","locat_name":"隱語咖啡","city":"台北市","district":"內湖區","address":"成功路三段146號","latitude":"25.0798587","longitude":"121.5897885"},
{"locat_id":"64","locat_name":"無二藝廊","city":"台北市","district":"內湖區","address":"陽光街321巷40號","latitude":"25.0718210","longitude":"121.5781580"},
{"locat_id":"65","locat_name":"光譜藝廊","city":"台北市","district":"內湖區","address":"瑞湖街80號","latitude":"25.0725888","longitude":"121.5759446"},
{"locat_id":"66","locat_name":"無界藝廊","city":"台北市","district":"大安區","address":"安東街35巷31號1樓","latitude":"25.0442616","longitude":"121.5433641"},
{"locat_id":"67","locat_name":"青柚日和Café","city":"台北市","district":"內湖區","address":"文德路22巷9弄66號","latitude":"25.0765186","longitude":"121.5793672"},
{"locat_id":"68","locat_name":"未竟之作藝廊","city":"台北市","district":"大安區","address":"敦化南路一段160巷53號","latitude":"25.0436585","longitude":"121.5465906"},
{"locat_id":"69","locat_name":"青鳥座咖啡","city":"台北市","district":"中正區","address":"寧波東街28號","latitude":"25.0323195","longitude":"121.5199241"},
{"locat_id":"70","locat_name":"透視軸線藝廊","city":"台北市","district":"中正區","address":"金華街31號","latitude":"25.0325056","longitude":"121.5192822"},
{"locat_id":"71","locat_name":"純粹之所藝廊","city":"台北市","district":"內湖區","address":"麗山街332號","latitude":"25.0828835","longitude":"121.5731368"},
{"locat_id":"72","locat_name":"界限之外藝廊","city":"台北市","district":"大安區","address":"建國南路二段79巷9號","latitude":"25.0309405","longitude":"121.5383600"},
{"locat_id":"73","locat_name":"時光小屋咖啡","city":"台北市","district":"大安區","address":"光復南路294巷21號","latitude":"25.0391436","longitude":"121.5564820"},
{"locat_id":"74","locat_name":"日映晴光咖啡","city":"台北市","district":"內湖區","address":"民權東路六段137號","latitude":"25.0678135","longitude":"121.5813991"},
{"locat_id":"75","locat_name":"未完待續咖啡","city":"台北市","district":"內湖區","address":"內湖路二段355巷5號1樓","latitude":"25.0839794","longitude":"121.5921773"},
{"locat_id":"76","locat_name":"無垠之境藝廊","city":"台北市","district":"中正區","address":"館前路42號","latitude":"25.0444467","longitude":"121.5149174"},
{"locat_id":"77","locat_name":"留白藝境藝廊","city":"台北市","district":"大安區","address":"和平東路一段123號","latitude":"25.0269426","longitude":"121.5274544"},
{"locat_id":"78","locat_name":"灰階空間藝廊","city":"台北市","district":"內湖區","address":"康樂街186巷30號","latitude":"25.0779157","longitude":"121.6200054"},
{"locat_id":"79","locat_name":"間隙美學藝廊","city":"台北市","district":"大安區","address":"光復南路290巷58號","latitude":"25.0394385","longitude":"121.5555461"},
{"locat_id":"80","locat_name":"無聲詩咖啡","city":"台北市","district":"大安區","address":"金山南路二段141巷1號","latitude":"25.0297093","longitude":"121.5268539"},
{"locat_id":"81","locat_name":"藝廊","city":"台北市","district":"中山區","address":"長安西路36號","latitude":"25.0499735","longitude":"121.5205296"},
{"locat_id":"82","locat_name":"異度視界藝廊","city":"台北市","district":"大安區","address":"臨江街107號","latitude":"25.0303445","longitude":"121.5539851"},
{"locat_id":"83","locat_name":"島嶼信箱Café","city":"台北市","district":"中山區","address":"樂群三路58號","latitude":"25.0825896","longitude":"121.5529315"},
{"locat_id":"84","locat_name":"余白計劃藝廊","city":"台北市","district":"大安區","address":"文昌街138號","latitude":"25.0325030","longitude":"121.5530401"},
{"locat_id":"85","locat_name":"光影間咖啡","city":"台北市","district":"中山區","address":"中山北路二段16巷23-1號","latitude":"25.0532302","longitude":"121.5207719"},
{"locat_id":"86","locat_name":"未至之境藝廊","city":"台北市","district":"中山區","address":"中山北路二段36巷7號2樓","latitude":"25.0543006","longitude":"121.5220868"},
{"locat_id":"87","locat_name":"素然畫廊","city":"台北市","district":"內湖區","address":"港墘路26巷4號","latitude":"25.0827111","longitude":"121.5777982"},
{"locat_id":"88","locat_name":"一頁咖啡","city":"台北市","district":"中山區","address":"北安路458巷41弄45號","latitude":"25.0792862","longitude":"121.5463234"},
{"locat_id":"89","locat_name":"抽象之間藝廊","city":"台北市","district":"內湖區","address":"康寧路三段99巷17弄24號1樓","latitude":"25.0727175","longitude":"121.6098690"},
{"locat_id":"90","locat_name":"靛藍藝域藝廊","city":"台北市","district":"中正區","address":"羅斯福路三段302號3樓","latitude":"25.0163029","longitude":"121.5323921"},
{"locat_id":"91","locat_name":"未完成藝廊","city":"台北市","district":"內湖區","address":"洲子街78號","latitude":"25.0795327","longitude":"121.5718229"},
{"locat_id":"92","locat_name":"無邊計畫Café","city":"台北市","district":"大安區","address":"四維路208巷10號","latitude":"25.0263854","longitude":"121.5474287"},
{"locat_id":"93","locat_name":"白。咖啡","city":"台北市","district":"中山區","address":"樂群二路55號1樓","latitude":"25.0808677","longitude":"121.5538052"},
{"locat_id":"94","locat_name":"遠方有光藝廊","city":"台北市","district":"內湖區","address":"港墘路127巷16弄10號","latitude":"25.0780930","longitude":"121.5772648"},
{"locat_id":"95","locat_name":"無二咖啡","city":"台北市","district":"中山區","address":"中山北路二段36巷11號1樓","latitude":"25.0543067","longitude":"121.5219247"},
{"locat_id":"96","locat_name":"一頁畫廊","city":"台北市","district":"中山區","address":"民權東路一段56號","latitude":"25.0625137","longitude":"121.5246194"},
{"locat_id":"97","locat_name":"雲上之境Café","city":"台北市","district":"大安區","address":"四維路52巷8號","latitude":"25.0352802","longitude":"121.5474252"},
{"locat_id":"98","locat_name":"未央咖啡","city":"台北市","district":"中山區","address":"中山北路一段133號","latitude":"25.0516501","longitude":"121.5226169"},
{"locat_id":"99","locat_name":"紙上詩藝畫廊","city":"台北市","district":"大安區","address":"安和路一段127巷29弄1號","latitude":"25.0352336","longitude":"121.5538942"},
{"locat_id":"100","locat_name":"形構之所畫廊","city":"台北市","district":"內湖區","address":"內湖路二段336號","latitude":"25.0815931","longitude":"121.5891384"},
{"locat_id":"101","locat_name":"浮光幻境藝廊","city":"台北市","district":"內湖區","address":"大湖街168巷16號","latitude":"25.0803044","longitude":"121.6028107"},
{"locat_id":"102","locat_name":"素然咖啡","city":"台北市","district":"大安區","address":"建國南路一段312號","latitude":"25.0354463","longitude":"121.5374506"},
{"locat_id":"103","locat_name":"風的形狀藝廊","city":"台北市","district":"大安區","address":"大安路一段175巷6號","latitude":"25.0363285","longitude":"121.5463551"},
{"locat_id":"104","locat_name":"無界咖啡","city":"台北市","district":"中正區","address":"金門街15號","latitude":"25.0215255","longitude":"121.5232363"},
{"locat_id":"105","locat_name":"輪廓Café","city":"台北市","district":"大安區","address":"安和路一段55-1號","latitude":"25.0385759","longitude":"121.5513422"},
{"locat_id":"106","locat_name":"空白計劃藝廊","city":"台北市","district":"中山區","address":"植福路299號","latitude":"25.0832420","longitude":"121.5602585"},
{"locat_id":"107","locat_name":"浮光藝廊","city":"台北市","district":"大安區","address":"東豐街61號","latitude":"25.0360770","longitude":"121.5474965"},
{"locat_id":"108","locat_name":"此地咖啡","city":"台北市","district":"大安區","address":"安和路一段102巷23號","latitude":"25.0344066","longitude":"121.5505335"},
{"locat_id":"109","locat_name":"幻象咖啡館","city":"台北市","district":"中山區","address":"中山北路二段72巷18-1號3樓","latitude":"25.0572734","longitude":"121.5215732"},
{"locat_id":"110","locat_name":"餘白Café","city":"台北市","district":"中正區","address":"師大路165號","latitude":"25.0206045","longitude":"121.5272529"},
{"locat_id":"111","locat_name":"青魚畫室","city":"台北市","district":"內湖區","address":"瑞光路218號","latitude":"25.0754388","longitude":"121.5760777"},
{"locat_id":"112","locat_name":"初白Café","city":"台北市","district":"大安區","address":"泰順街38-1號","latitude":"25.0246559","longitude":"121.5312908"},
{"locat_id":"113","locat_name":"詩與畫間畫廊","city":"台北市","district":"內湖區","address":"瑞光路513巷22弄11號","latitude":"25.0800149","longitude":"121.5688881"},
{"locat_id":"114","locat_name":"無光之地Café","city":"台北市","district":"內湖區","address":"環山路一段28巷17號","latitude":"25.0856446","longitude":"121.5640360"},
{"locat_id":"115","locat_name":"月白風清Café","city":"台北市","district":"中正區","address":"羅斯福路三段284巷11號1樓","latitude":"25.0161013","longitude":"121.5317006"},
{"locat_id":"116","locat_name":"日常片段藝廊","city":"台北市","district":"中正區","address":"重慶南路三段5號","latitude":"25.0292890","longitude":"121.5155906"},
{"locat_id":"118","locat_name":"時光標本館藝廊","city":"台北市","district":"內湖區","address":"內湖路二段192號","latitude":"25.0807536","longitude":"121.5856927"},
{"locat_id":"119","locat_name":"幾何映象咖啡","city":"台北市","district":"中山區","address":"中山北路二段16巷15號1樓","latitude":"25.0531448","longitude":"121.5212585"},
{"locat_id":"120","locat_name":"光譜咖啡","city":"台北市","district":"中正區","address":"忠孝西路一段126號","latitude":"25.0474086","longitude":"121.5109221"},
{"locat_id":"121","locat_name":"集點Café","city":"台北市","district":"中正區","address":"延平南路37號","latitude":"25.0453940","longitude":"121.5106305"},
{"locat_id":"122","locat_name":"未竟畫室","city":"台北市","district":"中山區","address":"中山北路二段16巷23號","latitude":"25.0531644","longitude":"121.5208930"},
{"locat_id":"124","locat_name":"流光拾遺藝廊","city":"台北市","district":"中正區","address":"汀州路三段166號","latitude":"25.0133187","longitude":"121.5345226"},
{"locat_id":"125","locat_name":"夢境座標藝廊","city":"台北市","district":"中正區","address":"廈門街47號","latitude":"25.0256985","longitude":"121.5176157"},
{"locat_id":"126","locat_name":"留光之間咖啡","city":"台北市","district":"中正區","address":"晉江街48巷5弄7號3樓","latitude":"25.0238856","longitude":"121.5232917"},
{"locat_id":"127","locat_name":"白瓷咖啡","city":"台北市","district":"中山區","address":"樂群二路150號","latitude":"25.0796887","longitude":"121.5571835"},
{"locat_id":"128","locat_name":"光影之間藝廊","city":"台北市","district":"大安區","address":"大安路一段19巷10號","latitude":"25.0443178","longitude":"121.5467122"},
{"locat_id":"130","locat_name":"素描時光畫廊","city":"台北市","district":"中正區","address":"博愛路86號","latitude":"25.0444387","longitude":"121.5113825"},
{"locat_id":"131","locat_name":"緩緩時光咖啡","city":"台北市","district":"中正區","address":"牯嶺街95巷51號","latitude":"25.0257612","longitude":"121.5204059"},
{"locat_id":"132","locat_name":"Minimal Café","city":"台北市","district":"大安區","address":"和平東路二段96巷15弄30號","latitude":"25.0233428","longitude":"121.5423830"},
{"locat_id":"133","locat_name":"素木藝廊","city":"台北市","district":"中正區","address":"師大路177號","latitude":"25.0207131","longitude":"121.5267530"},
{"locat_id":"134","locat_name":"夜航者咖啡館","city":"台北市","district":"中山區","address":"民生東路三段88巷4號","latitude":"25.0575429","longitude":"121.5424993"},
{"locat_id":"135","locat_name":"聽雨堂咖啡","city":"台北市","district":"中正區","address":"南昌路一段59巷10號","latitude":"25.0315367","longitude":"121.5178890"},
{"locat_id":"136","locat_name":"承藝藝廊","city":"台北市","district":"中正區","address":"寧波西街221號","latitude":"25.0255765","longitude":"121.5103546"},
{"locat_id":"137","locat_name":"Less Café","city":"台北市","district":"中山區","address":"民生東路二段147巷1號1樓","latitude":"25.0592316","longitude":"121.5347226"},
{"locat_id":"138","locat_name":"Mono Café","city":"台北市","district":"大安區","address":"四維路208巷10號","latitude":"25.0263149","longitude":"121.5474287"},
{"locat_id":"139","locat_name":"拾光藝廊","city":"台北市","district":"中山區","address":"大直街20巷15號","latitude":"25.0813347","longitude":"121.5453461"},
{"locat_id":"140","locat_name":"雲水間咖啡","city":"台北市","district":"內湖區","address":"環山路一段28巷17號","latitude":"25.0856446","longitude":"121.5640360"},
{"locat_id":"141","locat_name":"霧隱小築","city":"台北市","district":"大安區","address":"仁愛路四段151巷13號1樓","latitude":"25.0390329","longitude":"121.5518806"},
{"locat_id":"142","locat_name":"工心藝廊","city":"台北市","district":"中山區","address":"中山北路二段36巷7號2樓","latitude":"25.0543006","longitude":"121.5220868"},
{"locat_id":"143","locat_name":"泊岸咖啡館","city":"台北市","district":"大安區","address":"四維路52巷8號","latitude":"25.0351794","longitude":"121.5473290"},
{"locat_id":"144","locat_name":"Pure Café","city":"台北市","district":"內湖區","address":"內湖路二段239號","latitude":"25.0818930","longitude":"121.5894358"},
{"locat_id":"145","locat_name":"本真藝廊","city":"台北市","district":"中正區","address":"重慶南路二段19巷2號1樓","latitude":"25.0324426","longitude":"121.5145156"},
{"locat_id":"146","locat_name":"Whitespace Café","city":"台北市","district":"中正區","address":"南陽街32號","latitude":"25.0441746","longitude":"121.5160344"},
{"locat_id":"147","locat_name":"造物藝廊","city":"台北市","district":"中山區","address":"中山北路二段16巷15號1樓","latitude":"25.0531448","longitude":"121.5212585"},
{"locat_id":"148","locat_name":"文脈藝廊","city":"台北市","district":"中正區","address":"重慶南路三段5號","latitude":"25.0292890","longitude":"121.5155906"},
{"locat_id":"149","locat_name":"白鹿書房","city":"台北市","district":"中正區","address":"新生南路一段56巷8號","latitude":"25.0411375","longitude":"121.5321335"},
{"locat_id":"150","locat_name":"青石巷咖啡","city":"台北市","district":"大安區","address":"和平東路一段19-1號","latitude":"25.0275128","longitude":"121.5229068"},
{"locat_id":"151","locat_name":"素白堂","city":"台北市","district":"文山區","address":"試院路5號","latitude":"24.9884462","longitude":"121.5483862"},
{"locat_id":"152","locat_name":"煙波舍咖啡","city":"台北市","district":"大同區","address":"西寧北路15號","latitude":"25.0524057","longitude":"121.5087309"},
{"locat_id":"153","locat_name":"匠本藝廊","city":"台北市","district":"北投區","address":"樹林路7號","latitude":"25.1435539","longitude":"121.4898443"},
{"locat_id":"154","locat_name":"Simple Café","city":"台北市","district":"中山區","address":"興安街32號","latitude":"25.0562765","longitude":"121.5386040"},
{"locat_id":"155","locat_name":"Still Café","city":"台北市","district":"信義區","address":"虎林街12號","latitude":"25.0450688","longitude":"121.5773010"},
{"locat_id":"157","locat_name":"匠心藝廊","city":"台北市","district":"北投區","address":"中正街6號","latitude":"25.1320606","longitude":"121.5011527"},
{"locat_id":"158","locat_name":"和器藝廊","city":"台北市","district":"士林區","address":"長春街18號","latitude":"25.1369354","longitude":"121.5441245"},
{"locat_id":"159","locat_name":"時匠藝廊","city":"台北市","district":"士林區","address":"臨溪路19號","latitude":"25.0950621","longitude":"121.5451929"},
{"locat_id":"161","locat_name":"野塵舍咖啡","city":"台北市","district":"中正區","address":"愛國東路23號","latitude":"25.0325529","longitude":"121.5207146"},
{"locat_id":"162","locat_name":"遺風藝廊","city":"台北市","district":"萬華區","address":"德昌街10號","latitude":"25.0248565","longitude":"121.4978280"},
{"locat_id":"163","locat_name":"Aether Café","city":"台北市","district":"北投區","address":"立功街15號","latitude":"25.1245661","longitude":"121.4682859"},
{"locat_id":"164","locat_name":"Form & Function Café","city":"台北市","district":"士林區","address":"倫等街7號","latitude":"25.0923860","longitude":"121.5013189"},
{"locat_id":"165","locat_name":"Slow & Brew Café","city":"台北市","district":"文山區","address":"久康街15號","latitude":"24.9889494","longitude":"121.5646196"},
{"locat_id":"166","locat_name":"風物藝廊","city":"台北市","district":"士林區","address":"福德路5號","latitude":"25.0922567","longitude":"121.5236444"},
{"locat_id":"167","locat_name":"南隅茶屋","city":"台北市","district":"中正區","address":"丹陽街34號","latitude":"25.0392853","longitude":"121.5243152"},
{"locat_id":"168","locat_name":"Neat Café","city":"台北市","district":"士林區","address":"中華路6號","latitude":"25.1336725","longitude":"121.5451525"},
{"locat_id":"169","locat_name":"Minimal Café","city":"台北市","district":"大同區","address":"華亭街15號","latitude":"25.0528631","longitude":"121.5132230"},
{"locat_id":"170","locat_name":"Void Café","city":"台北市","district":"大安區","address":"臥龍街10號","latitude":"25.0149576","longitude":"121.5609810"},
{"locat_id":"172","locat_name":"碧藝廊","city":"台北市","district":"士林區","address":"小北街28號","latitude":"25.0908165","longitude":"121.5252716"},
{"locat_id":"174","locat_name":"Element Café","city":"台北市","district":"北投區","address":"行義路29號","latitude":"25.1252901","longitude":"121.5267917"},
{"locat_id":"175","locat_name":"渺境藝廊","city":"台北市","district":"中正區","address":"福州街12號","latitude":"25.0290640","longitude":"121.5192635"},
{"locat_id":"176","locat_name":"Horizon Café","city":"台北市","district":"士林區","address":"和平路4號","latitude":"25.1394555","longitude":"121.5480621"},
{"locat_id":"177","locat_name":"造物藝廊","city":"台北市","district":"中正區","address":"鎮江街16號","latitude":"25.0434213","longitude":"121.5211663"},
{"locat_id":"178","locat_name":"Neutral Café","city":"台北市","district":"中正區","address":"臨沂街29號","latitude":"25.0362542","longitude":"121.5284851"},
{"locat_id":"179","locat_name":"Slow Brew Café","city":"台北市","district":"文山區","address":"中崙路27號","latitude":"24.9838828","longitude":"121.5648717"},
{"locat_id":"180","locat_name":"器物藝廊","city":"台北市","district":"萬華區","address":"梧州街26號","latitude":"25.0377562","longitude":"121.4975479"},
{"locat_id":"181","locat_name":"Less Café","city":"台北市","district":"信義區","address":"文昌街30號","latitude":"25.0321585","longitude":"121.5579912"},
{"locat_id":"182","locat_name":"Bare Café","city":"台北市","district":"大同區","address":"安西街28號","latitude":"25.0590148","longitude":"121.5100773"},
{"locat_id":"183","locat_name":"山月軒咖啡","city":"台北市","district":"大同區","address":"安西街28號","latitude":"25.0590148","longitude":"121.5100773"},
{"locat_id":"184","locat_name":"聽雨堂咖啡","city":"台北市","district":"松山區","address":"光復北路4號","latitude":"25.0485125","longitude":"121.5576509"},
{"locat_id":"185","locat_name":"Whitespace Café","city":"台北市","district":"松山區","address":"光復北路4號","latitude":"25.0485125","longitude":"121.5576509"},
{"locat_id":"186","locat_name":"泊岸咖啡館","city":"台北市","district":"北投區","address":"中心街17號","latitude":"25.1382129","longitude":"121.5105821"},
{"locat_id":"190","locat_name":"望津咖啡","city":"台北市","district":"北投區","address":"新市街17號","latitude":"25.1324156","longitude":"121.5019088"},
{"locat_id":"191","locat_name":"Solitude Café","city":"台北市","district":"中正區","address":"辛亥路23號","latitude":"25.0193685","longitude":"121.5282095"},
{"locat_id":"192","locat_name":"日常選物所","city":"台北市","district":"萬華區","address":"寶興街34號","latitude":"25.0274077","longitude":"121.4931327"},
{"locat_id":"193","locat_name":"翠微咖啡","city":"台北市","district":"萬華區","address":"寶興街34號","latitude":"25.0274077","longitude":"121.4931327"},
{"locat_id":"194","locat_name":"The Slow House Café","city":"台北市","district":"文山區","address":"老泉街15號","latitude":"24.9758465","longitude":"121.5585686"},
{"locat_id":"195","locat_name":"映時選物店","city":"台北市","district":"文山區","address":"老泉街15號","latitude":"24.9758465","longitude":"121.5585686"},
{"locat_id":"196","locat_name":"飛魚選物所","city":"台北市","district":"文山區","address":"老泉街15號","latitude":"24.9758465","longitude":"121.5585686"},
{"locat_id":"197","locat_name":"無聲風景選物店","city":"台北市","district":"中正區","address":"詔安街11號","latitude":"25.0252613","longitude":"121.5129352"},
{"locat_id":"198","locat_name":"風和日暖選物所","city":"台北市","district":"中正區","address":"杭州北路13號","latitude":"25.0447606","longitude":"121.5270761"},
{"locat_id":"199","locat_name":"晃山咖啡","city":"台北市","district":"北投區","address":"紗帽路24號","latitude":"25.1398957","longitude":"121.5328164"},
{"locat_id":"200","locat_name":"Hidden Notes Café","city":"台北市","district":"北投區","address":"尊賢街29號","latitude":"25.1158344","longitude":"121.5078101"},
{"locat_id":"201","locat_name":"微塵咖啡","city":"台北市","district":"中正區","address":"西藏路25號","latitude":"25.0304247","longitude":"121.5066299"},
{"locat_id":"202","locat_name":"詩意日常選物店","city":"台北市","district":"士林區","address":"大光街27號","latitude":"25.0965805","longitude":"121.5214066"},
{"locat_id":"203","locat_name":"漂泊咖啡","city":"台北市","district":"士林區","address":"士商路11號","latitude":"25.0909847","longitude":"121.5198663"},
{"locat_id":"204","locat_name":"Dear Moment Café","city":"台北市","district":"松山區","address":"寶清街13號","latitude":"25.0499123","longitude":"121.5689895"},
{"locat_id":"205","locat_name":"WUTZ屋子","city":"台北市","district":"中山區","address":"八德路二段176號","latitude":"25.0462943","longitude":"121.5382254"},
{"locat_id":"208","locat_name":"泊雲咖啡","city":"台北市","district":"信義區","address":"松勤街23號","latitude":"25.0319877","longitude":"121.5647791"},
{"locat_id":"209","locat_name":"Ethereal Café","city":"台北市","district":"松山區","address":"光復南路10號","latitude":"25.0479542","longitude":"121.5579854"},
{"locat_id":"210","locat_name":"寄月咖啡","city":"台北市","district":"內湖區","address":"洲子街34號","latitude":"25.0806223","longitude":"121.5696626"},
{"locat_id":"211","locat_name":"紙上時光選物店","city":"台北市","district":"內湖區","address":"潭美街34號","latitude":"25.0606412","longitude":"121.5926410"},
{"locat_id":"212","locat_name":"Daydream Café","city":"台北市","district":"內湖區","address":"行善路12號","latitude":"25.0566875","longitude":"121.5769222"},
{"locat_id":"213","locat_name":"時光選集選物店","city":"台北市","district":"松山區","address":"八德路四段641號2樓","latitude":"25.0502143","longitude":"121.5750849"},
{"locat_id":"214","locat_name":"Lost & Found Café","city":"台北市","district":"信義區","address":"市府路30號","latitude":"25.0399148","longitude":"121.5636978"},
{"locat_id":"215","locat_name":"島嶼物語選物店","city":"台北市","district":"文山區","address":"和平東路35號","latitude":"25.0046253","longitude":"121.5706513"},
{"locat_id":"216","locat_name":"安和咖啡","city":"台北市","district":"松山區","address":"塔悠路16號","latitude":"25.0502873","longitude":"121.5715388"},
{"locat_id":"217","locat_name":"Wander & Sip Café","city":"台北市","district":"內湖區","address":"江南街27號","latitude":"25.0780715","longitude":"121.5783885"},
{"locat_id":"218","locat_name":"凝暉選物所","city":"台北市","district":"大安區","address":"安東街35號","latitude":"25.0433487","longitude":"121.5426595"},
{"locat_id":"219","locat_name":"煙雨咖啡","city":"台北市","district":"中正區","address":"北平西路2號","latitude":"25.0470758","longitude":"121.5198330"},
{"locat_id":"221","locat_name":"The Quiet Corner Café","city":"台北市","district":"士林區","address":"天玉街1號","latitude":"25.1215956","longitude":"121.5283898"},
{"locat_id":"223","locat_name":"Mellow Hours Café","city":"台北市","district":"中正區","address":"永綏街29號","latitude":"25.0430897","longitude":"121.5111139"},
{"locat_id":"224","locat_name":"長風咖啡","city":"台北市","district":"文山區","address":"景興路17號","latitude":"24.9924713","longitude":"121.5439076"},
{"locat_id":"226","locat_name":"Paper Moon Café","city":"台北市","district":"信義區","address":"市府路28號","latitude":"25.0399148","longitude":"121.5636978"},
{"locat_id":"227","locat_name":"Silent Echo Café","city":"台北市","district":"大安區","address":"仁愛路8號","latitude":"25.0379570","longitude":"121.5335533"},
{"locat_id":"228","locat_name":"雨中森林選物店","city":"台北市","district":"中山區","address":"農安街35號","latitude":"25.0649841","longitude":"121.5252848"},
{"locat_id":"229","locat_name":"Faint Whispers Café","city":"台北市","district":"文山區","address":"景仁街26號","latitude":"24.9984545","longitude":"121.5377001"},
{"locat_id":"230","locat_name":"Ever After Café","city":"台北市","district":"文山區","address":"政大二街26號","latitude":"24.9867992","longitude":"121.5842159"},
{"locat_id":"232","locat_name":"FORMA ART 藝術空間","city":"台北市","district":"南港區","address":"興東街19號","latitude":"25.0564370","longitude":"121.6111096"},
{"locat_id":"233","locat_name":"Sketch & Sip Café","city":"台北市","district":"大安區","address":"安和路二段92號B1","latitude":"25.0291177","longitude":"121.5502138"},
{"locat_id":"234","locat_name":"The Art Nook Café","city":"台北市","district":"士林區","address":"天玉街13號","latitude":"25.1207097","longitude":"121.5273081"},
{"locat_id":"235","locat_name":"無相之物選物店","city":"台北市","district":"中正區","address":"丹陽街32號","latitude":"25.0392853","longitude":"121.5243152"},
{"locat_id":"236","locat_name":"遠方選物所","city":"台北市","district":"北投區","address":"幽雅路14號","latitude":"25.1374338","longitude":"121.5136374"},
{"locat_id":"237","locat_name":"咫尺選物店","city":"台北市","district":"松山區","address":"松河街32號","latitude":"25.0571995","longitude":"121.5697934"},
{"locat_id":"238","locat_name":"Impression Café","city":"台北市","district":"信義區","address":"松勇路1號","latitude":"25.0402828","longitude":"121.5701309"},
{"locat_id":"239","locat_name":"LUMO ART 藝術空間","city":"台北市","district":"中山區","address":"中山北路30號","latitude":"25.0631476","longitude":"121.5225228"},
{"locat_id":"240","locat_name":"SOMA ART 藝術空間","city":"台北市","district":"中山區","address":"五常街35號","latitude":"25.0646144","longitude":"121.5386075"},
{"locat_id":"241","locat_name":"The Artisan’s Cup Café","city":"台北市","district":"文山區","address":"恆光街22號","latitude":"24.9832963","longitude":"121.5667041"},
{"locat_id":"243","locat_name":"靛藍藝選選物店","city":"台北市","district":"中正區","address":"潮州街14號","latitude":"25.0297453","longitude":"121.5212819"},
{"locat_id":"244","locat_name":"ECHO ART 藝術空間","city":"台北市","district":"大同區","address":"庫倫街15號","latitude":"25.0720828","longitude":"121.5174547"},
{"locat_id":"245","locat_name":"Blank Café","city":"台北市","district":"大安區","address":"臨江街1號","latitude":"25.0295556","longitude":"121.5570809"},
{"locat_id":"246","locat_name":"畫布選物店","city":"台北市","district":"中山區","address":"民生西路13號","latitude":"25.0580829","longitude":"121.5216272"},
{"locat_id":"247","locat_name":"Linger Café","city":"台北市","district":"內湖區","address":"安美街9號","latitude":"25.0612137","longitude":"121.5972018"},
{"locat_id":"248","locat_name":"立體之所選物店","city":"台北市","district":"南港區","address":"成福路9號","latitude":"25.0402834","longitude":"121.5887336"},
{"locat_id":"249","locat_name":"VOX ART 藝文中心","city":"台北市","district":"北投區","address":"立德路4號","latitude":"25.1275717","longitude":"121.4720785"},
{"locat_id":"250","locat_name":"ORIGIN ART 藝術空間","city":"台北市","district":"士林區","address":"故宮路35號","latitude":"25.0963204","longitude":"121.5475206"},
{"locat_id":"251","locat_name":"VORTEX ART 藝文中心","city":"台北市","district":"中山區","address":"敬業二路11號","latitude":"25.0809400","longitude":"121.5539201"},
{"locat_id":"253","locat_name":"光譜選品選物店","city":"台北市","district":"大安區","address":"敦南街11號","latitude":"25.0214853","longitude":"121.5471780"},
{"locat_id":"254","locat_name":"PRISM ART 藝文中心","city":"台北市","district":"中正區","address":"廣州街3號","latitude":"25.0353678","longitude":"121.5099699"},
{"locat_id":"256","locat_name":"形色之間選物店","city":"台北市","district":"內湖區","address":"安康路29號","latitude":"25.0629137","longitude":"121.5993186"},
{"locat_id":"257","locat_name":"AURA ART 藝術空間","city":"台北市","district":"內湖區","address":"港墘路17號","latitude":"25.0828970","longitude":"121.5783981"},
{"locat_id":"258","locat_name":"Pigment House Café","city":"台北市","district":"士林區","address":"中正路19號","latitude":"25.0962132","longitude":"121.5300748"},
{"locat_id":"259","locat_name":"MIRÓ ART 藝術空間","city":"台北市","district":"萬華區","address":"西寧南路28號","latitude":"25.0454913","longitude":"121.5063835"},
{"locat_id":"260","locat_name":"ARC ART 藝文中心","city":"台北市","district":"內湖區","address":"文湖街21號","latitude":"25.0865270","longitude":"121.5615921"},
{"locat_id":"261","locat_name":"The Abstract Cup Café","city":"台北市","district":"士林區","address":"小西街21號","latitude":"25.0899088","longitude":"121.5234227"},
{"locat_id":"262","locat_name":"Easel & Espresso Café","city":"台北市","district":"大安區","address":"安東街1號","latitude":"25.0430293","longitude":"121.5424058"},
{"locat_id":"263","locat_name":"Studio Brew Café","city":"台北市","district":"士林區","address":"建業路35號","latitude":"25.1358621","longitude":"121.5483695"},
{"locat_id":"264","locat_name":"MODUS ART 藝文中心","city":"台北市","district":"中正區","address":"徐州路28號","latitude":"25.0414489","longitude":"121.5204220"},
{"locat_id":"265","locat_name":"異度空間選物所","city":"台北市","district":"北投區","address":"學園路10號","latitude":"25.1347775","longitude":"121.4700530"},
{"locat_id":"266","locat_name":"Mosaic Café","city":"台北市","district":"文山區","address":"育英街8號","latitude":"24.9909950","longitude":"121.5391384"},
{"locat_id":"267","locat_name":"TERRA ART 藝文中心","city":"台北市","district":"中正區","address":"沅陵街26號","latitude":"25.0427512","longitude":"121.5123685"},
{"locat_id":"268","locat_name":"FUSION ART 藝文中心","city":"台北市","district":"北投區","address":"溫泉路6號","latitude":"25.1336248","longitude":"121.5034148"},
{"locat_id":"270","locat_name":"灰階Bar","city":"台北市","district":"士林區","address":"福港街2號","latitude":"25.0893528","longitude":"121.5184872"},
{"locat_id":"271","locat_name":"Ink & Light Café","city":"台北市","district":"士林區","address":"天母東路9號","latitude":"25.1181957","longitude":"121.5314295"},
{"locat_id":"274","locat_name":"幾何選品選物店","city":"台北市","district":"萬華區","address":"雙園街14號","latitude":"25.0292695","longitude":"121.4946820"},
{"locat_id":"276","locat_name":"無界選品","city":"台北市","district":"信義區","address":"松仁路8號","latitude":"25.0253665","longitude":"121.5690944"},
{"locat_id":"277","locat_name":"Untitled Space Café","city":"台北市","district":"北投區","address":"中興路26號","latitude":"25.1595996","longitude":"121.5397649"},
{"locat_id":"278","locat_name":"HALO ART 藝文中心","city":"台北市","district":"信義區","address":"松信路18號","latitude":"25.0485539","longitude":"121.5720556"},
{"locat_id":"280","locat_name":"Brush & Bean Café","city":"台北市","district":"中山區","address":"敬業三路15號","latitude":"25.0837221","longitude":"121.5559708"},
{"locat_id":"281","locat_name":"Ethereal Café","city":"台北市","district":"南港區","address":"重陽路7號","latitude":"25.0574856","longitude":"121.6000137"},
{"locat_id":"283","locat_name":"Surreal Grounds Café","city":"台北市","district":"士林區","address":"華光街25號","latitude":"25.0954594","longitude":"121.5229867"},
{"locat_id":"284","locat_name":"ELEMENT ART 藝文中心","city":"台北市","district":"信義區","address":"松高路10號","latitude":"25.0390451","longitude":"121.5701936"},
{"locat_id":"285","locat_name":"迷離之境選品","city":"台北市","district":"中正區","address":"寶慶路31號","latitude":"25.0418913","longitude":"121.5089654"},
{"locat_id":"286","locat_name":"ATELIER ART 藝術空間","city":"台北市","district":"萬華區","address":"梧州街11號","latitude":"25.0368580","longitude":"121.4976142"},
{"locat_id":"287","locat_name":"Essence Café","city":"台北市","district":"信義區","address":"永吉路446-3號","latitude":"25.0452628","longitude":"121.5787750"},
{"locat_id":"288","locat_name":"Quiet Brew Café","city":"台北市","district":"士林區","address":"和豐街19號","latitude":"25.0826526","longitude":"121.5186885"},
{"locat_id":"289","locat_name":"Whitespace Café","city":"台北市","district":"中山區","address":"農安街34號","latitude":"25.0648040","longitude":"121.5268349"},
{"locat_id":"290","locat_name":"Neat Café","city":"台北市","district":"萬華區","address":"華西街3號","latitude":"25.0398406","longitude":"121.4986068"},
{"locat_id":"291","locat_name":"靜謐之所藝廊","city":"台北市","district":"中正區","address":"湖口街6號","latitude":"25.0329592","longitude":"121.5149984"},
{"locat_id":"292","locat_name":"墨線之間畫廊","city":"台北市","district":"南港區","address":"合順街8巷7弄38號","latitude":"25.0420426","longitude":"121.6200923"},
{"locat_id":"293","locat_name":"空寰選物店","city":"台北市","district":"士林區","address":"福志路6號","latitude":"25.0984597","longitude":"121.5320462"},
{"locat_id":"294","locat_name":"至簡畫室畫廊","city":"台北市","district":"信義區","address":"松隆路23號","latitude":"25.0441009","longitude":"121.5674816"},
{"locat_id":"295","locat_name":"淡墨計劃藝廊","city":"台北市","district":"萬華區","address":"民和街11號","latitude":"25.0260609","longitude":"121.4995617"},
{"locat_id":"296","locat_name":"白方畫廊","city":"台北市","district":"南港區","address":"經貿一路17號","latitude":"25.0612613","longitude":"121.6177897"},
{"locat_id":"297","locat_name":"無相之地藝廊","city":"台北市","district":"文山區","address":"光輝路4號","latitude":"24.9878147","longitude":"121.5550216"},
{"locat_id":"299","locat_name":"少即是多選物所","city":"台北市","district":"大同區","address":"敦煌路32號","latitude":"25.0752904","longitude":"121.5192939"},
{"locat_id":"300","locat_name":"青溪藝術空間","city":"台北市","district":"松山區","address":"延壽街31號","latitude":"25.0567995","longitude":"121.5625161"},
{"locat_id":"301","locat_name":"簡一選物所","city":"台北市","district":"萬華區","address":"環河南路27號","latitude":"25.0475282","longitude":"121.5046116"},
{"locat_id":"302","locat_name":"虛實之境選物店","city":"台北市","district":"大安區","address":"樂利路28號","latitude":"25.0264385","longitude":"121.5517355"},
{"locat_id":"303","locat_name":"素然選品","city":"台北市","district":"中正區","address":"南海路14號","latitude":"25.0325238","longitude":"121.5172359"},
{"locat_id":"304","locat_name":"靜域藝廊","city":"台北市","district":"信義區","address":"福德街29號","latitude":"25.0370900","longitude":"121.5814400"},
{"locat_id":"305","locat_name":"無界藝境藝廊","city":"台北市","district":"大同區","address":"赤峰街10號","latitude":"25.0552437","longitude":"121.5196315"},
{"locat_id":"306","locat_name":"畫橋藝術中心","city":"台北市","district":"中正區","address":"詔安街12號","latitude":"25.0252613","longitude":"121.5129352"},
{"locat_id":"307","locat_name":"煙雨藝術空間","city":"台北市","district":"文山區","address":"萬安街12號","latitude":"24.9996798","longitude":"121.5716868"},
{"locat_id":"309","locat_name":"本質選物所","city":"台北市","district":"大安區","address":"文昌街5號","latitude":"25.0326780","longitude":"121.5550399"},
{"locat_id":"310","locat_name":"空白視界藝廊","city":"台北市","district":"大同區","address":"雙連街35號","latitude":"25.0587041","longitude":"121.5190724"},
{"locat_id":"311","locat_name":"無界選物所","city":"台北市","district":"大同區","address":"庫倫街23號","latitude":"25.0724134","longitude":"121.5180069"},
{"locat_id":"313","locat_name":"涵川藝術空間","city":"台北市","district":"內湖區","address":"成功路9號","latitude":"25.0646992","longitude":"121.5990980"},
{"locat_id":"314","locat_name":"江聲藝術中心","city":"台北市","district":"中山區","address":"民權西路35號","latitude":"25.0629617","longitude":"121.5212523"},
{"locat_id":"315","locat_name":"少即是多藝廊","city":"台北市","district":"中正區","address":"泉州街13號","latitude":"25.0251546","longitude":"121.5131098"},
{"locat_id":"318","locat_name":"純白選品","city":"台北市","district":"中山區","address":"錦州街34號","latitude":"25.0602543","longitude":"121.5387620"},
{"locat_id":"319","locat_name":"懷風藝術空間","city":"台北市","district":"信義區","address":"紫雲街11號","latitude":"25.0159117","longitude":"121.5756288"},
{"locat_id":"320","locat_name":"序列之間選品","city":"台北市","district":"中山區","address":"農安街11號","latitude":"25.0642931","longitude":"121.5356993"},
{"locat_id":"324","locat_name":"松影藝術中心","city":"台北市","district":"中山區","address":"興安街19號","latitude":"25.0560961","longitude":"121.5403624"},
{"locat_id":"325","locat_name":"極致選物所","city":"台北市","district":"中正區","address":"泉州街21號","latitude":"25.0251546","longitude":"121.5131098"},
{"locat_id":"326","locat_name":"本質空間藝廊","city":"台北市","district":"萬華區","address":"興義街18號","latitude":"25.0264428","longitude":"121.4914015"},
{"locat_id":"329","locat_name":"無相選品","city":"台北市","district":"南港區","address":"惠民街33號","latitude":"25.0570281","longitude":"121.6100687"},
{"locat_id":"330","locat_name":"靜域藝術中心","city":"台北市","district":"大同區","address":"長安西路78巷3弄4-1號","latitude":"25.0497498","longitude":"121.5193673"},
{"locat_id":"331","locat_name":"至簡選品","city":"台北市","district":"文山區","address":"集英街29號","latitude":"24.9886545","longitude":"121.5694350"},
{"locat_id":"332","locat_name":"松澗藝術空間","city":"台北市","district":"大同區","address":"大龍街28號","latitude":"25.0638922","longitude":"121.5159167"},
{"locat_id":"334","locat_name":"霧隱藝術中心","city":"台北市","district":"內湖區","address":"金豐街34號","latitude":"25.0652579","longitude":"121.5878493"},
{"locat_id":"335","locat_name":"晴嶼藝術中心","city":"台北市","district":"松山區","address":"新東街22號","latitude":"25.0590866","longitude":"121.5659347"},
{"locat_id":"336","locat_name":"素白藝術空間","city":"台北市","district":"松山區","address":"敦化北路32號","latitude":"25.0564966","longitude":"121.5496966"},
{"locat_id":"338","locat_name":"極線選物店","city":"台北市","district":"大同區","address":"塔城街23號","latitude":"25.0491516","longitude":"121.5101968"},
{"locat_id":"340","locat_name":"簡物藝舍藝廊","city":"台北市","district":"松山區","address":"東寧路13號","latitude":"25.0481010","longitude":"121.5629463"},
{"locat_id":"341","locat_name":"簡物選物店","city":"台北市","district":"士林區","address":"凱旋路4號","latitude":"25.1359640","longitude":"121.5447708"},
{"locat_id":"342","locat_name":"靜謐選物所","city":"台北市","district":"松山區","address":"延壽街18號","latitude":"25.0567995","longitude":"121.5625161"},
{"locat_id":"343","locat_name":"灰階藝境藝廊","city":"台北市","district":"中山區","address":"民生西路10號","latitude":"25.0576621","longitude":"121.5222147"},
{"locat_id":"344","locat_name":"望津藝術中心","city":"台北市","district":"文山區","address":"溪口街6號","latitude":"24.9958883","longitude":"121.5380497"},
{"locat_id":"345","locat_name":"白方選物店","city":"台北市","district":"中山區","address":"長安西路21號","latitude":"25.0503553","longitude":"121.5203108"},
{"locat_id":"347","locat_name":"墨池藝術中心","city":"台北市","district":"中山區","address":"市民大道三段7號","latitude":"25.0463064","longitude":"121.5312863"},
{"locat_id":"348","locat_name":"少即是多選物所","city":"台北市","district":"大安區","address":"臥龍街14號","latitude":"25.0108562","longitude":"121.5639847"},
{"locat_id":"349","locat_name":"純白計劃藝廊","city":"台北市","district":"大安區","address":"泰順街26號","latitude":"25.0250271","longitude":"121.5314639"},
{"locat_id":"350","locat_name":"無央藝廊","city":"台北市","district":"中正區","address":"同安街27號","latitude":"25.0259166","longitude":"121.5225477"},
{"locat_id":"352","locat_name":"樸作選物所","city":"台北市","district":"松山區","address":"富錦街16號","latitude":"25.0606869","longitude":"121.5601469"},
{"locat_id":"353","locat_name":"光影Bar","city":"台北市","district":"信義區","address":"市民大道24號","latitude":"25.0468169","longitude":"121.5677886"},
{"locat_id":"354","locat_name":"未完Bar","city":"台北市","district":"大同區","address":"歸綏街8號","latitude":"25.0576603","longitude":"121.5122079"},
{"locat_id":"355","locat_name":"書頁Bar","city":"台北市","district":"內湖區","address":"內湖路22號","latitude":"25.0646992","longitude":"121.5990980"},
{"locat_id":"356","locat_name":"藏曦Bar","city":"台北市","district":"大安區","address":"師大路9號","latitude":"25.0257743","longitude":"121.5285581"},
{"locat_id":"357","locat_name":"NOKI ARTS 隱跡藝術計畫","city":"台北市","district":"南港區","address":"向陽路13號","latitude":"25.0558940","longitude":"121.5940475"},
{"locat_id":"358","locat_name":"溫度選品","city":"台北市","district":"信義區","address":"永吉路29號","latitude":"25.0458858","longitude":"121.5685010"},
{"locat_id":"359","locat_name":"VOX ARTS 無聲藝術計畫","city":"台北市","district":"中正區","address":"潮州街1號","latitude":"25.0300334","longitude":"121.5206010"},
{"locat_id":"361","locat_name":"純白之境Bar","city":"台北市","district":"中山區","address":"興安街4號","latitude":"25.0560739","longitude":"121.5374218"},
{"locat_id":"362","locat_name":"朦朧Bar","city":"台北市","district":"中山區","address":"撫順街4號","latitude":"25.0634958","longitude":"121.5194919"},
{"locat_id":"366","locat_name":"手感工坊選品","city":"台北市","district":"信義區","address":"光復南路29號","latitude":"25.0352613","longitude":"121.5582001"},
{"locat_id":"367","locat_name":"編織選物所","city":"台北市","district":"中正區","address":"永春街7號","latitude":"25.0145226","longitude":"121.5268950"},
{"locat_id":"368","locat_name":"匠心選物所","city":"台北市","district":"士林區","address":"建業路26號","latitude":"25.1359575","longitude":"121.5486520"},
{"locat_id":"369","locat_name":"流光幻夢Bar","city":"台北市","district":"士林區","address":"長春街26號","latitude":"25.1369354","longitude":"121.5441245"},
{"locat_id":"370","locat_name":"詩與酒Bar","city":"台北市","district":"大安區","address":"雲和街28號","latitude":"25.0234945","longitude":"121.5300721"},
{"locat_id":"371","locat_name":"浮光藝術中心","city":"台北市","district":"南港區","address":"興中路3號","latitude":"25.0563160","longitude":"121.6071040"},
{"locat_id":"373","locat_name":"玄妙藝術空間","city":"台北市","district":"北投區","address":"立賢路24號","latitude":"25.1147409","longitude":"121.5030666"},
{"locat_id":"374","locat_name":"青禾藝術中心","city":"台北市","district":"大同區","address":"蘭州街20號","latitude":"25.0621735","longitude":"121.5142902"},
{"locat_id":"376","locat_name":"Lumo Lumo Art Space","city":"台北市","district":"大安區","address":"龍泉街15號","latitude":"25.0252314","longitude":"121.5293489"},
{"locat_id":"377","locat_name":"微醺Bar","city":"台北市","district":"信義區","address":"文昌街6號","latitude":"25.0321585","longitude":"121.5579912"},
{"locat_id":"379","locat_name":"構築之境藝術空間","city":"台北市","district":"信義區","address":"松仁路6號","latitude":"25.0253665","longitude":"121.5690944"},
{"locat_id":"380","locat_name":"Oro Oro Gallery","city":"台北市","district":"北投區","address":"同德街22號","latitude":"25.1251902","longitude":"121.5285534"},
{"locat_id":"381","locat_name":"未央藝術空間","city":"台北市","district":"北投區","address":"立功街9號","latitude":"25.1245103","longitude":"121.4688572"},
{"locat_id":"382","locat_name":"日常Bar","city":"台北市","district":"內湖區","address":"行愛路35號","latitude":"25.0641172","longitude":"121.5801235"},
{"locat_id":"383","locat_name":"空白藝術中心","city":"台北市","district":"士林區","address":"雨農路25號","latitude":"25.0984840","longitude":"121.5322267"},
{"locat_id":"384","locat_name":"Kibi Kibi Art Space","city":"台北市","district":"中山區","address":"民族東路27號","latitude":"25.0683442","longitude":"121.5338522"},
{"locat_id":"385","locat_name":"至然藝術空間","city":"台北市","district":"松山區","address":"光復北路5號","latitude":"25.0487428","longitude":"121.5579908"},
{"locat_id":"386","locat_name":"松Bar","city":"台北市","district":"中山區","address":"天津街2號","latitude":"25.0491024","longitude":"121.5228600"},
{"locat_id":"387","locat_name":"Miro Miro Gallery","city":"台北市","district":"士林區","address":"格致路12號","latitude":"25.1362832","longitude":"121.5463213"},
{"locat_id":"388","locat_name":"Hako Hako Art Space","city":"台北市","district":"中山區","address":"復興北路1號","latitude":"25.0494402","longitude":"121.5437197"},
{"locat_id":"389","locat_name":"觀止藝術中心","city":"台北市","district":"北投區","address":"行義路24號","latitude":"25.1462079","longitude":"121.5232231"},
{"locat_id":"390","locat_name":"NUZONE 展演空間","city":"台北市","district":"大安區","address":"市民大道三段198號2樓","latitude":"25.0442845","longitude":"121.5385099"},
{"locat_id":"391","locat_name":"流光藝術空間","city":"台北市","district":"北投區","address":"雙全街22號","latitude":"25.1386373","longitude":"121.5009889"},
{"locat_id":"392","locat_name":"Rika Rika Gallery","city":"台北市","district":"內湖區","address":"麗山街25號","latitude":"25.0802806","longitude":"121.5812969"},
{"locat_id":"393","locat_name":"未竟Bar","city":"台北市","district":"南港區","address":"玉成街27號","latitude":"25.0504731","longitude":"121.5818075"},
{"locat_id":"394","locat_name":"寂光藝術空間","city":"台北市","district":"萬華區","address":"大埔街16號","latitude":"25.0326766","longitude":"121.5040764"},
{"locat_id":"395","locat_name":"素境藝術中心","city":"台北市","district":"中正區","address":"丹陽街3號","latitude":"25.0392853","longitude":"121.5243152"},
{"locat_id":"397","locat_name":"風象藝術中心","city":"台北市","district":"南港區","address":"興中路23號","latitude":"25.0563160","longitude":"121.6071040"},
{"locat_id":"398","locat_name":"Tida Tida Art Space","city":"台北市","district":"士林區","address":"雨農路6號","latitude":"25.0971728","longitude":"121.5323580"},
{"locat_id":"399","locat_name":"流光Bar","city":"台北市","district":"北投區","address":"聖景路3號","latitude":"25.1234592","longitude":"121.4640768"},
{"locat_id":"400","locat_name":"Zazu Zazu Gallery","city":"台北市","district":"中山區","address":"崇實路7號","latitude":"25.0821471","longitude":"121.5444908"},
{"locat_id":"401","locat_name":"流光映日Bar","city":"台北市","district":"中正區","address":"金華街22號","latitude":"25.0316339","longitude":"121.5204630"},
{"locat_id":"402","locat_name":"離塵藝術中心","city":"台北市","district":"松山區","address":"復興北路4號","latitude":"25.0486160","longitude":"121.5442591"},
{"locat_id":"403","locat_name":"Lino Lino Gallery","city":"台北市","district":"中正區","address":"忠孝西路16號","latitude":"25.0457091","longitude":"121.5194916"},
{"locat_id":"404","locat_name":"浮日藝術中心","city":"台北市","district":"信義區","address":"莊敬路3號","latitude":"25.0264377","longitude":"121.5679920"},
{"locat_id":"405","locat_name":"幾何之境Bar","city":"台北市","district":"士林區","address":"仁民路32號","latitude":"25.1334531","longitude":"121.5430296"},
{"locat_id":"406","locat_name":"掬影Bar","city":"台北市","district":"中山區","address":"南京西路16號","latitude":"25.0525017","longitude":"121.5213529"},
{"locat_id":"407","locat_name":"浮光Bar","city":"台北市","district":"士林區","address":"華岡路23號","latitude":"25.1379828","longitude":"121.5428170"},
{"locat_id":"408","locat_name":"本真藝術中心","city":"台北市","district":"中正區","address":"忠孝東路3號","latitude":"25.0446700","longitude":"121.5235700"},
{"locat_id":"409","locat_name":"無垠藝術中心","city":"台北市","district":"文山區","address":"萬盛街25號","latitude":"25.0055842","longitude":"121.5415657"},
{"locat_id":"415","locat_name":"雲上Bar","city":"台北市","district":"士林區","address":"福林路28號","latitude":"25.0951286","longitude":"121.5301820"},
{"locat_id":"416","locat_name":"Koko Koko Art Space","city":"台北市","district":"中山區","address":"華陰街7號","latitude":"25.0499663","longitude":"121.5204826"},
{"locat_id":"417","locat_name":"遠方Bar","city":"台北市","district":"中山區","address":"民族西路26號","latitude":"25.0685285","longitude":"121.5213559"},
{"locat_id":"418","locat_name":"Filo Filo Gallery","city":"台北市","district":"中山區","address":"雙城街34號","latitude":"25.0664846","longitude":"121.5242578"},
{"locat_id":"420","locat_name":"逸象藝術空間","city":"台北市","district":"萬華區","address":"華西街22號","latitude":"25.0375541","longitude":"121.4983488"},
{"locat_id":"422","locat_name":"極限Bar","city":"台北市","district":"內湖區","address":"文德路30號","latitude":"25.0783141","longitude":"121.5799119"},
{"locat_id":"423","locat_name":"遠山藝術空間 Yuanshan Art Place","city":"台北市","district":"中山區","address":"錦州街10號","latitude":"25.0602540","longitude":"121.5237979"},
{"locat_id":"426","locat_name":"素白藝術空間 Subai Art Place","city":"台北市","district":"信義區","address":"光復南路1號","latitude":"25.0346545","longitude":"121.5577814"},
{"locat_id":"427","locat_name":"泊雲藝術中心 Boyun Art Place","city":"台北市","district":"信義區","address":"永吉路33號","latitude":"25.0459941","longitude":"121.5686554"},
{"locat_id":"429","locat_name":"涵川藝術空間 Hanchuan Art Place","city":"台北市","district":"中正區","address":"金門街11號","latitude":"25.0216368","longitude":"121.5233896"},
{"locat_id":"430","locat_name":"煙雨藝術中心 Yanyu Art Place","city":"台北市","district":"中山區","address":"安東街7號","latitude":"25.0457473","longitude":"121.5421205"},
{"locat_id":"432","locat_name":"透徹Bar","city":"台北市","district":"中正區","address":"沅陵街26號","latitude":"25.0427512","longitude":"121.5123685"},
{"locat_id":"435","locat_name":"畫橋藝術中心 Huaqiao Art Place","city":"台北市","district":"中正區","address":"晉江街15號","latitude":"25.0258173","longitude":"121.5214906"},
{"locat_id":"436","locat_name":"無界Bar","city":"台北市","district":"文山區","address":"萬利街10號","latitude":"25.0001456","longitude":"121.5662130"},
{"locat_id":"438","locat_name":"無二Bar","city":"台北市","district":"大同區","address":"民樂街8號","latitude":"25.0589230","longitude":"121.5108638"},
{"locat_id":"439","locat_name":"觀止藝術中心 Guanzhi Art Place","city":"台北市","district":"萬華區","address":"水源路20號","latitude":"25.0167072","longitude":"121.4956764"},
{"locat_id":"440","locat_name":"離塵藝術中心 Lichen Art Place","city":"台北市","district":"士林區","address":"仁民路7號","latitude":"25.1339639","longitude":"121.5446236"},
{"locat_id":"441","locat_name":"晴嶼藝術中心 Qingyu Art Place","city":"台北市","district":"中正區","address":"永春街4號","latitude":"25.0145071","longitude":"121.5268016"},
{"locat_id":"442","locat_name":"至簡Bar","city":"台北市","district":"中山區","address":"天津街20號","latitude":"25.0486277","longitude":"121.5223904"},
{"locat_id":"443","locat_name":"簡一Bar","city":"台北市","district":"北投區","address":"行義路31號","latitude":"25.1342982","longitude":"121.5288254"},
{"locat_id":"444","locat_name":"流光藝術空間 Liuguang Art Place","city":"台北市","district":"中山區","address":"民族西路10號","latitude":"25.0685285","longitude":"121.5213559"},
{"locat_id":"445","locat_name":"本質Bar","city":"台北市","district":"萬華區","address":"廣州街13號","latitude":"25.0362787","longitude":"121.5057087"},
{"locat_id":"449","locat_name":"曉風藝術中心 Xiaofeng Art Place","city":"台北市","district":"內湖區","address":"行愛路8號","latitude":"25.0641172","longitude":"121.5801235"},
{"locat_id":"450","locat_name":"與然Bar","city":"台北市","district":"萬華區","address":"寶興街1號","latitude":"25.0243828","longitude":"121.4951717"},
{"locat_id":"451","locat_name":"靛Bar","city":"台北市","district":"大安區","address":"忠孝東路三段217巷7弄9號1樓","latitude":"25.0438018","longitude":"121.5393946"},
{"locat_id":"452","locat_name":"純粹Bar","city":"台北市","district":"士林區","address":"忠勇街35號","latitude":"25.0981647","longitude":"121.5331771"},
{"locat_id":"453","locat_name":"漫遊Bar","city":"台北市","district":"南港區","address":"福山街1號","latitude":"25.0457746","longitude":"121.6164097"},
{"locat_id":"454","locat_name":"職人選物所","city":"台北市","district":"松山區","address":"北寧路34號","latitude":"25.0493531","longitude":"121.5527489"},
{"locat_id":"456","locat_name":"VITA ARTS 未然藝術計畫","city":"台北市","district":"萬華區","address":"雙和街24號","latitude":"25.0277765","longitude":"121.5015633"},
{"locat_id":"457","locat_name":"器物選物店","city":"台北市","district":"中正區","address":"紹興北街16號","latitude":"25.0451786","longitude":"121.5253249"},
{"locat_id":"458","locat_name":"TERRA ARTS 地景藝術計畫","city":"台北市","district":"中山區","address":"民族西路10號","latitude":"25.0685285","longitude":"121.5213559"},
{"locat_id":"459","locat_name":"詩酒Bar","city":"台北市","district":"南港區","address":"富康街1號","latitude":"25.0530914","longitude":"121.6174932"},
{"locat_id":"461","locat_name":"LINO ARTS 線條藝術計畫","city":"台北市","district":"大安區","address":"愛國東路31號","latitude":"25.0321959","longitude":"121.5248192"},
{"locat_id":"462","locat_name":"物候選品","city":"台北市","district":"中正區","address":"桃源街7號","latitude":"25.0418767","longitude":"121.5105780"},
{"locat_id":"463","locat_name":"間隙之所Bar","city":"台北市","district":"信義區","address":"松智路29號","latitude":"25.0309207","longitude":"121.5653783"},
{"locat_id":"464","locat_name":"匠藝選物所","city":"台北市","district":"中山區","address":"松江路30號","latitude":"25.0472473","longitude":"121.5327143"},
{"locat_id":"465","locat_name":"ECHO ARTS 回聲藝術計畫","city":"台北市","district":"文山區","address":"景興路25號","latitude":"24.9976756","longitude":"121.5448781"},
{"locat_id":"466","locat_name":"工藝選物店","city":"台北市","district":"大安區","address":"光復南路34號","latitude":"25.0314120","longitude":"121.5573650"},
{"locat_id":"467","locat_name":"PRISM ARTS 光譜藝術計畫","city":"台北市","district":"內湖區","address":"金莊路16號","latitude":"25.0632033","longitude":"121.5876279"},
{"locat_id":"468","locat_name":"LUMO ARTS 映光藝術計畫","city":"台北市","district":"中山區","address":"錦州街9號","latitude":"25.0604234","longitude":"121.5240941"},
{"locat_id":"469","locat_name":"手藝選物店","city":"台北市","district":"中山區","address":"民生西路9號","latitude":"25.0578691","longitude":"121.5216508"},
{"locat_id":"470","locat_name":"VORTEX ARTS 渦流藝術計畫","city":"台北市","district":"信義區","address":"松信路9號","latitude":"25.0488169","longitude":"121.5723268"},
{"locat_id":"471","locat_name":"和風選物店","city":"台北市","district":"松山區","address":"光復南路5號","latitude":"25.0478694","longitude":"121.5580320"},
{"locat_id":"472","locat_name":"暮留選物店","city":"台北市","district":"信義區","address":"仁愛路12號","latitude":"25.0375387","longitude":"121.5627834"},
{"locat_id":"473","locat_name":"HALO ARTS 晴光藝術計畫","city":"台北市","district":"信義區","address":"松壽路11號","latitude":"25.0360015","longitude":"121.5673635"},
{"locat_id":"474","locat_name":"風景Bar","city":"台北市","district":"南港區","address":"中坡南路15號","latitude":"25.0435143","longitude":"121.5830476"},
{"locat_id":"475","locat_name":"FLOU ARTS 霧感藝術計畫","city":"台北市","district":"信義區","address":"吳興街69號","latitude":"25.0309220","longitude":"121.5606028"},
{"locat_id":"476","locat_name":"慢工選品","city":"台北市","district":"信義區","address":"逸仙路42巷17號","latitude":"25.0402359","longitude":"121.5629071"},
{"locat_id":"477","locat_name":"SOMA ARTS 素馬藝術計畫","city":"台北市","district":"信義區","address":"忠孝東路五段165巷3弄21號1樓","latitude":"25.0416132","longitude":"121.5695554"},
{"locat_id":"478","locat_name":"手感選物店","city":"台北市","district":"大安區","address":"敦化南路二段39-1號","latitude":"25.0317096","longitude":"121.5493147"},
{"locat_id":"479","locat_name":"AETHER ARTS 以太藝術計畫","city":"台北市","district":"信義區","address":"永吉路30巷75號","latitude":"25.0441388","longitude":"121.5688607"},
{"locat_id":"480","locat_name":"MODUS ARTS 美學藝術計畫","city":"台北市","district":"信義區","address":"松山路220號","latitude":"25.0448623","longitude":"121.5776321"},
{"locat_id":"481","locat_name":"時光選物店","city":"台北市","district":"信義區","address":"虎林街40巷1號","latitude":"25.0474406","longitude":"121.5766730"},
{"locat_id":"482","locat_name":"NOVA ARTS 星野藝術計畫","city":"台北市","district":"大安區","address":"通化街38巷4號","latitude":"25.0308472","longitude":"121.5540293"}
]
